,City,Lat,Lng,Temp,Humidity,Cloudiness,Wind Speed
0,Chuy,-33.69,-53.46,53.51,91,53,3.8
1,Hasaki,35.73,140.83,77.0,69,75,6.93
2,Sao Filipe,14.9,-24.5,72.05,87,47,14.47
3,Jamestown,-33.21,138.6,57.29,69,85,17.58
4,Fuerte Olimpo,-21.04,-57.87,65.57,56,0,4.23
5,Ushuaia,-54.81,-68.31,37.4,86,75,3.13
6,Lebu,8.96,38.73,55.4,82,40,6.93
7,Marystown,47.17,-55.16,45.77,90,67,6.73
8,Nsunga,-1.13,31.39,73.4,73,20,9.17
9,Nanortalik,60.14,-45.24,38.03,93,13,0.4
10,Ouesso,1.61,16.05,68.63,98,100,2.84
11,Juba,57.82,26.93,55.0,93,97,6.93
12,Metro,-5.11,105.31,82.31,70,63,4.25
13,Yellowknife,62.45,-114.38,51.8,71,40,8.05
14,Bluff,-23.58,149.07,73.85,44,3,8.25
15,Rikitea,-23.12,-134.97,73.49,81,13,17.72
16,Neiafu,-18.65,-173.98,75.2,94,40,3.36
17,Inhambane,-23.87,35.38,65.03,64,0,3.47
18,Sisimiut,66.94,-53.67,40.37,91,90,10.92
19,Clyde River,70.47,-68.59,46.4,81,1,4.7
20,Wismar,53.89,11.46,62.01,71,40,2.24
21,Tuktoyaktuk,69.44,-133.03,41.0,93,90,13.87
22,Cubuk,40.24,33.03,70.0,64,40,9.17
23,Bayan,36.1,102.26,55.13,70,100,7.4
24,Punta Arenas,-53.16,-70.91,37.4,93,90,8.05
25,Vostok,46.45,135.83,78.89,60,99,4.76
26,Nikolskoye,59.7,30.79,53.01,62,40,8.95
27,Manadhoo,5.77,73.38,84.11,64,100,4.0
28,Malchevskaya,49.06,40.36,69.35,48,100,5.41
29,San Andres,13.32,122.68,91.49,55,28,3.87
30,Upington,-28.46,21.24,44.6,52,0,6.93
31,New Norfolk,-42.78,147.06,55.4,50,75,13.87
32,Hermanus,-34.42,19.24,51.01,94,0,1.01
33,Mar del Plata,-46.43,-67.52,40.91,84,41,6.06
34,Mahebourg,-20.41,57.7,75.99,78,40,2.24
35,Albany,42.65,-73.75,73.4,69,1,1.34
36,Abonnema,4.71,6.79,73.67,94,95,5.7
37,Cape Town,-33.93,18.42,51.01,100,0,1.12
38,Pevek,69.7,170.27,55.13,58,0,13.22
39,Saint-Philippe,45.36,-73.48,75.0,73,75,4.7
40,Beitbridge,-22.21,29.99,64.49,40,0,2.84
41,Meulaboh,4.14,96.13,84.83,65,76,5.88
42,Nantucket,41.28,-70.1,72.0,93,90,6.98
43,Port Hawkesbury,45.62,-61.36,57.0,82,75,12.75
44,Klaksvik,62.23,-6.59,53.6,93,100,4.7
45,Saint George,39.45,22.34,71.01,77,75,13.87
46,Saskylakh,71.97,114.09,66.65,41,81,6.31
47,Pacific Grove,36.62,-121.92,66.2,72,1,5.82
48,Noumea,-22.28,166.46,73.4,64,0,8.05
49,Kapaa,22.08,-159.32,80.6,74,40,11.41
50,Richards Bay,-28.77,32.06,64.85,82,5,6.38
51,Gaffney,35.07,-81.65,78.01,88,1,1.23
52,Tura,64.27,100.22,59.63,82,100,10.76
53,Barrow,-38.31,-60.23,47.03,86,100,4.34
54,Margate,-43.03,147.26,55.4,50,75,13.87
55,Vaini,15.34,74.49,75.2,88,75,6.93
56,Upernavik,72.79,-56.15,41.99,79,69,4.36
57,Herbertpur,30.44,77.74,82.4,83,90,5.82
58,Pacasmayo,-7.4,-79.57,62.69,89,0,11.61
59,New Castle,41.0,-80.35,78.8,94,75,4.12
60,Kavaratti,10.57,72.64,83.57,82,100,12.55
61,Byron Bay,-28.65,153.62,75.2,37,0,12.75
62,Victoria,5.28,115.24,89.6,66,75,3.36
63,Bredasdorp,-34.53,20.04,39.2,93,0,3.36
64,Comodoro Rivadavia,-45.87,-67.48,41.0,93,0,3.94
65,West Wendover,40.74,-114.07,80.6,21,1,5.06
66,Eravur,7.77,81.61,89.33,58,100,7.4
67,Traiguen,-38.25,-72.68,43.25,92,68,2.59
68,Port Alfred,-33.59,26.89,53.01,80,0,1.99
69,Port Lincoln,-34.72,135.86,58.19,76,66,30.87
70,Lavrentiya,65.58,-170.99,70.79,32,5,5.79
71,Banda Aceh,5.56,95.32,84.47,74,99,10.92
72,Mataura,-46.19,168.86,50.0,86,26,3.98
73,Marapanim,-0.71,-47.7,80.87,75,34,15.86
74,Emerald,-23.53,148.16,75.0,38,0,8.05
75,Calabar,4.98,8.34,72.59,96,100,0.47
76,San Carlos de Bariloche,-41.13,-71.31,32.0,94,40,4.79
77,Warrington,53.39,-2.59,63.0,93,75,3.36
78,Lisala,2.15,21.52,70.07,93,100,2.51
79,Labuhan,-2.54,115.51,85.91,70,82,1.03
80,Geraldton,49.72,-86.95,53.6,100,90,12.75
81,Ponta do Sol,-20.63,-46.0,51.17,70,0,2.37
82,Komsomolskiy,67.55,63.78,64.67,75,83,15.26
83,Severo-Kurilsk,50.68,156.12,42.89,97,100,21.45
84,Corpus Christi,27.8,-97.4,82.99,88,1,5.82
85,Tasiilaq,65.61,-37.64,42.8,75,82,6.93
86,Poum,41.28,20.71,55.4,62,0,11.41
87,Calama,-22.46,-68.93,42.8,26,0,21.92
88,Santa Cruz,-6.22,-36.02,66.83,94,61,4.56
89,Beloha,-25.17,45.06,68.81,66,37,7.14
90,Lazaro Cardenas,28.39,-105.62,78.01,52,62,5.99
91,Ribeira Grande,38.52,-28.7,69.71,87,0,5.21
92,Grande Prairie,55.17,-118.79,55.4,100,90,3.36
93,Ustka,54.58,16.86,61.07,80,0,0.81
94,Takhatgarh,25.32,73.0,89.51,54,98,23.96
95,Sola,-3.17,33.8,72.23,56,17,10.04
96,Ulaangom,49.98,92.07,64.85,57,100,11.95
97,Meliki,40.52,22.4,66.99,72,40,19.46
98,Kodiak,39.95,-94.76,72.0,46,1,6.93
99,Busselton,-33.64,115.35,66.0,49,93,12.12
100,Chokurdakh,70.62,147.9,78.89,37,37,8.23
101,Airai,-8.93,125.41,83.75,48,91,3.18
102,Avarua,-21.21,-159.78,73.4,83,81,4.7
103,Tiksi,71.64,128.87,55.49,54,100,6.33
104,Norman Wells,65.28,-126.83,66.2,55,90,9.17
105,Atuona,-9.8,-139.03,80.69,80,18,17.76
106,Ust-Kuyga,70.0,135.55,78.71,34,67,11.65
107,Rio Gallegos,-51.62,-69.22,40.01,98,100,8.34
108,Hashtrud,37.48,47.05,74.03,33,0,7.47
109,Grenville,45.62,-74.6,77.0,82,75,4.7
110,Carnarvon,-30.97,22.13,49.73,31,0,9.73
111,Okhotsk,59.36,143.24,64.85,66,86,11.23
112,Natal,-5.81,-35.21,73.4,88,40,6.93
113,Narsaq,60.91,-46.05,44.6,81,50,2.24
114,Panacan,7.15,125.66,90.0,70,75,5.82
115,Thunder Bay,48.41,-89.26,62.6,63,5,11.41
116,Arraial do Cabo,-22.97,-42.02,62.51,80,33,11.81
117,Port Augusta,-32.49,137.76,62.6,67,75,19.46
118,Kang,-23.67,22.79,51.53,38,0,5.91
119,Thompson,55.74,-97.86,51.8,76,75,2.24
120,Yumen,40.29,97.04,90.05,12,99,22.19
121,Quang Ngai,15.12,108.8,97.25,35,100,3.13
122,Bacungan,9.87,118.73,87.8,70,75,4.7
123,Wewak,-3.55,143.63,80.15,75,99,4.85
124,Puerto Ayora,-0.74,-90.35,70.0,92,33,1.01
125,Mugur-Aksy,50.38,90.44,39.83,93,100,11.7
126,Castro,-42.48,-73.76,42.8,100,90,9.17
127,Sept-Iles,50.2,-66.38,53.01,76,20,5.82
128,Riachao das Neves,-11.75,-44.91,63.23,62,48,0.51
129,Koslan,63.46,48.9,44.69,94,100,8.48
130,Esperance,-33.86,121.89,60.8,72,75,16.11
131,Iracoubo,5.48,-53.21,72.41,96,81,3.8
132,Ugoofaaru,5.67,73.0,84.47,64,100,3.91
133,Inirida,3.87,-67.92,70.79,98,38,2.37
134,Joppatowne,39.42,-76.36,77.0,78,1,6.38
135,Baicheng,45.61,122.87,86.81,44,99,3.31
136,Idritsa,56.33,28.9,54.77,87,100,4.74
137,Gonzalez,-42.79,-65.06,50.63,64,67,13.35
138,Bambous Virieux,-20.34,57.76,75.99,78,40,2.24
139,Hithadhoo,-0.6,73.08,84.65,74,100,10.85
140,Port Hedland,-20.31,118.58,84.2,13,100,18.34
141,Alyangula,-13.85,136.42,80.6,57,63,9.17
142,Vao,59.1,26.19,55.85,65,100,9.15
143,Harper,30.3,-99.24,75.99,69,90,13.87
144,Rodrigues Alves,-7.74,-72.65,71.6,94,0,1.1
145,Torbay,47.66,-52.73,48.0,100,90,5.82
146,Terrace,54.52,-128.61,62.6,82,90,11.41
147,Sorong,-0.86,131.25,79.07,85,100,9.28
148,Nuevo Progreso,26.05,-97.95,82.99,78,1,6.93
149,Qaanaaq,77.48,-69.36,39.65,68,91,3.11
150,East London,-33.02,27.91,50.0,93,0,5.82
151,Mount Gambier,-37.83,140.78,55.4,71,75,25.28
152,Lagoa,37.14,-8.45,72.0,60,0,5.82
153,Hilo,19.71,-155.08,80.01,74,40,3.36
154,Faya,18.39,42.45,77.0,40,5,6.93
155,Damietta,31.42,31.81,82.49,69,0,6.11
156,Naze,5.43,7.07,71.69,98,90,1.01
157,Malartic,48.14,-78.13,68.0,82,20,4.7
158,Morondava,-20.3,44.28,70.43,66,0,14.27
159,San Quintin,17.54,120.52,85.91,71,26,8.72
160,Fairhope,30.52,-87.9,81.0,100,1,10.78
161,Kruisfontein,-34.0,24.73,56.93,35,0,9.55
162,Port Elizabeth,39.31,-74.98,75.2,77,1,5.08
163,Port Hardy,50.7,-127.42,60.8,93,75,2.24
164,Dingle,11.0,122.67,88.07,60,16,4.59
165,Dobson,-42.45,171.31,54.41,71,65,5.06
166,Tuatapere,-46.13,167.69,50.0,86,3,12.55
167,Butaritari,3.07,172.79,85.91,63,67,4.29
168,Piacabucu,-10.41,-36.43,74.39,87,57,12.93
169,Marawi,8.0,124.29,84.0,78,49,7.0
170,Arecibo,18.47,-66.72,81.0,88,40,4.7
171,Vestmannaeyjar,63.44,-20.27,52.61,78,96,11.39
172,Cidreira,-30.17,-50.22,58.55,74,100,5.1
173,Broome,52.47,1.45,63.0,93,75,5.82
174,Cherskiy,68.75,161.3,82.85,29,58,5.06
175,Lorengau,-2.02,147.27,81.23,75,100,10.83
176,Srednekolymsk,67.46,153.71,83.03,27,53,2.21
177,Bethel,60.79,-161.76,71.6,73,90,10.29
178,Samarai,-10.62,150.67,73.67,79,98,9.84
179,Vila Velha,-3.71,-38.6,77.0,78,0,6.93
180,Shulan,44.41,126.94,81.23,59,90,5.7
181,Tehri,30.38,78.48,82.4,83,90,5.82
182,Kavieng,-2.57,150.8,83.21,74,50,13.22
183,Luderitz,-26.65,15.16,59.0,65,0,6.93
184,Yenagoa,4.92,6.26,73.13,95,93,3.53
185,Georgetown,6.8,-58.16,73.4,100,20,4.7
186,Hounde,11.5,-3.52,72.23,92,0,5.14
187,Bahia Honda,22.9,-83.16,80.33,74,100,6.89
188,Kabwe,-14.44,28.44,55.49,62,15,7.94
189,Auki,12.18,6.51,72.77,86,40,14.97
190,Kidal,18.44,1.41,88.61,30,80,6.42
191,Vyshestebliyevskaya,45.2,37.0,68.0,82,20,6.71
192,Chalisgaon,20.46,75.0,85.37,63,97,19.91
193,Longyearbyen,78.22,15.63,44.6,87,75,2.24
194,Fairbanks,64.84,-147.72,79.0,57,40,5.82
195,Constitucion,23.99,-104.67,70.0,57,76,8.01
196,General Roca,-39.03,-67.58,41.0,93,0,2.66
197,Arroyo,-11.08,-66.08,70.79,73,9,0.67
198,Codrington,-28.95,153.24,75.2,28,0,13.87
199,Zaterechnyy,44.8,45.21,84.47,35,28,8.81
200,Palu,-0.9,119.87,82.67,67,99,3.06
201,Waddan,29.16,16.14,86.99,22,0,6.98
202,Gualeguaychu,-33.01,-58.51,54.0,94,87,1.01
203,Jishou,28.26,109.7,82.13,67,91,8.95
204,Raudeberg,61.99,5.14,55.4,100,75,3.36
205,Veracruz,-3.97,-79.57,57.83,91,47,2.37
206,Leningradskiy,69.38,178.42,44.15,70,7,4.03
207,Kijang,35.24,129.21,82.4,69,75,13.87
208,Husavik,50.56,-96.99,62.01,81,35,2.82
209,Kingston,17.97,-76.79,84.2,70,75,12.75
210,Houma,35.63,111.36,86.81,34,31,8.5
211,Hamilton,43.26,-79.87,77.0,88,75,4.7
212,Wiwili,13.63,-85.83,68.09,95,99,2.42
213,Damghan,36.17,54.34,72.59,41,99,0.49
214,Vila,45.18,8.4,73.0,73,75,5.82
215,Alta Floresta,-9.87,-56.08,67.73,59,2,2.1
216,Revda,67.94,34.55,39.29,80,100,10.22
217,Prince Rupert,54.32,-130.32,62.6,88,90,2.86
218,Ixtapa,20.71,-105.21,84.99,74,20,3.36
219,Kalmunai,7.42,81.82,95.81,38,85,4.18
220,Saint-Leu,-21.15,55.28,77.0,41,0,4.7
221,Carolina,18.38,-65.96,82.4,78,40,10.29
222,Arman,59.7,150.17,73.49,52,0,5.84
223,Novoselitskoye,44.75,43.44,73.4,43,96,4.47
224,Utiel,39.57,-1.21,72.0,88,0,3.36
225,Shache,38.42,77.24,86.63,28,0,4.14
226,Mufulira,-12.55,28.24,56.03,56,7,7.09
227,Boende,-0.28,20.88,71.33,94,81,3.71
228,Pisco,-13.71,-76.2,60.8,77,20,3.36
229,San Patricio,-26.98,-56.83,64.31,82,80,8.25
230,Angoram,-4.06,144.07,87.17,59,91,4.41
231,Oktyabrskoye,56.73,85.44,70.0,52,40,4.47
232,Zhigansk,66.77,123.37,82.31,35,100,7.16
233,Itarema,-2.92,-39.92,72.77,85,12,6.38
234,Hobart,-42.88,147.33,55.4,50,75,13.87
235,Lata,30.78,78.62,50.45,96,95,7.34
236,Turukhansk,65.8,87.96,63.77,44,7,15.55
237,Tanete,-3.94,119.78,85.55,61,12,13.58
238,Flin Flon,54.77,-101.88,55.31,87,99,2.57
239,Seymchan,62.93,152.39,79.97,32,0,5.48
240,Komatsushima,34.01,134.59,82.4,88,75,18.34
241,Rocha,-34.48,-54.34,51.17,91,30,3.44
242,Luganville,-15.51,167.18,78.8,88,75,5.82
243,Whitefish,48.41,-114.33,68.0,56,20,4.88
244,Quatre Cocos,-20.21,57.76,75.99,78,40,2.24
245,Saint-Pierre,48.95,4.24,60.8,72,0,3.36
246,Lumphat,13.5,106.97,89.15,63,87,3.78
247,Swan River,52.11,-101.27,59.27,86,55,6.82
248,Roald,62.58,6.12,55.4,93,90,3.36
249,Kasungu,-13.04,33.48,56.93,73,40,5.61
250,Kenora,49.76,-94.48,66.2,48,20,5.82
251,Weston,41.2,-73.38,78.01,83,75,0.87
252,South Miami,25.71,-80.29,84.99,83,75,5.82
253,Nyagan,62.14,65.43,70.97,69,94,9.6
254,Haradok,55.46,29.99,55.4,87,75,6.71
255,Kaeo,-35.1,173.78,54.77,88,0,3.0
256,Buala,-8.15,159.59,82.31,78,100,5.03
257,Celestun,20.87,-90.4,81.95,78,90,15.95
258,Aklavik,68.22,-135.01,44.6,81,90,10.29
259,Bandarbeyla,9.49,50.81,88.61,43,15,31.65
260,Paramonga,-10.68,-77.82,60.53,90,44,12.39
261,Mocuba,-16.84,36.99,65.03,82,0,1.99
262,Weinan,34.5,109.46,82.4,61,100,6.71
263,Ewa Beach,21.32,-158.01,84.2,54,20,12.75
264,Erenhot,43.65,111.97,83.39,22,24,6.06
265,Sampit,-2.54,112.95,89.87,52,44,3.78
266,Carlisle,54.89,-2.94,59.0,100,90,9.17
267,Coihaique,-45.58,-72.07,37.4,93,95,6.93
268,Vagur,61.47,-6.81,51.17,98,100,16.71
269,Saint-Augustin,45.63,-73.98,77.0,82,75,4.7
270,Jalu,29.03,21.55,83.39,40,0,6.17
271,Arroyos y Esteros,-25.05,-57.1,59.0,87,0,6.04
272,Effingham,39.12,-88.54,78.8,83,1,4.7
273,Herat,34.35,62.22,95.0,12,0,6.93
274,Nizhniy Baskunchak,48.22,46.83,63.41,78,100,8.23
275,Camacha,33.08,-16.33,69.8,73,75,14.99
276,Joinville,-26.3,-48.85,51.01,95,55,2.37
277,Hay River,60.82,-115.79,62.6,48,75,8.05
278,Carauari,-4.88,-66.9,69.89,99,20,2.21
279,Jacareacanga,-6.22,-57.76,70.43,86,7,1.66
280,Halifax,44.65,-63.58,54.0,81,5,4.7
281,Santa Isabel do Rio Negro,-0.41,-65.02,70.97,99,98,2.3
282,Jalingo,10.3,10.93,72.77,88,100,10.09
283,Dwarka,28.58,77.04,96.8,47,40,11.41
284,Yining,29.04,114.56,90.05,57,99,1.01
285,Catuday,16.29,119.81,84.83,78,10,12.84
286,Yarmouth,43.84,-66.12,57.2,82,40,6.93
287,Puro,13.13,123.76,85.73,65,38,3.4
288,Guerrero Negro,27.97,-114.04,67.01,80,0,19.13
289,Makakilo City,21.35,-158.09,84.2,69,1,9.17
290,Hofn,64.25,-15.21,40.19,81,100,1.99
291,Grindavik,63.84,-22.43,51.8,100,75,2.24
292,Port Macquarie,-31.43,152.91,75.0,26,0,17.22
293,Luau,-10.7,22.23,59.99,35,0,6.13
294,Pecos,31.42,-103.49,87.8,38,1,14.99
295,Rio Grande,-32.03,-52.1,55.49,94,75,3.13
296,Daru,-9.07,143.21,78.71,67,24,10.02
297,Baherden,38.44,57.43,79.97,36,47,8.23
298,Roebourne,-20.77,117.15,82.67,17,100,14.65
299,Watsa,3.04,29.53,68.63,93,88,2.73
300,Provideniya,64.42,-173.23,64.4,59,0,2.24
301,Puerto Madryn,-42.77,-65.04,50.63,64,67,13.35
302,Karratha,-20.74,116.85,82.85,17,100,15.82
303,Kalianget,-7.35,109.91,87.8,45,20,12.75
304,Namatanai,-3.66,152.44,79.79,79,100,21.83
305,Atasu,48.68,71.64,83.93,21,0,10.36
306,Sobolevo,54.43,31.9,57.65,88,50,7.43
307,Talcahuano,-36.72,-73.12,51.8,93,75,2.24
308,Mersing,2.43,103.84,89.69,50,96,3.74
309,Westport,41.14,-73.36,78.01,83,1,6.93
310,Filadelfia,-22.35,-60.04,68.45,52,0,7.45
311,Christchurch,-43.53,172.64,52.0,71,52,4.7
312,Namibe,-15.19,12.15,66.29,81,15,9.48
313,Matay,28.42,30.79,83.03,44,0,11.72
314,Quelimane,-17.88,36.89,59.0,93,40,2.24
315,Honiara,-9.43,159.96,86.0,79,75,10.29
316,Sinegorye,62.09,150.53,78.17,37,2,7.36
317,Prenzlau,53.32,13.87,59.0,81,22,7.23
318,Takapau,-40.02,176.35,52.0,80,58,9.98
319,Khatanga,71.98,102.47,49.37,78,100,4.94
320,Puerto El Triunfo,13.27,-88.55,75.2,88,40,2.24
321,Bukoba,-1.33,31.81,74.03,51,70,5.59
322,Iqaluit,63.75,-68.52,46.4,81,75,3.36
323,Isla Mujeres,21.23,-86.73,82.4,78,40,8.05
324,Keroka,-0.78,34.95,67.55,73,10,9.55
325,Constantine,36.36,6.61,62.6,77,0,2.15
326,Yar-Sale,66.83,70.83,56.39,88,100,17.94
327,Marsh Harbour,26.54,-77.06,83.39,79,13,12.64
328,Renigunta,13.64,79.51,89.6,49,75,3.36
329,Sulangan,11.14,123.72,84.83,63,24,3.02
330,Petropavlovsk-Kamchatskiy,53.05,158.65,66.2,68,20,8.95
331,Faanui,-16.48,-151.75,77.81,70,12,6.51
332,Ancud,-41.87,-73.83,42.8,100,90,9.17
333,Maniwaki,46.38,-75.98,62.15,94,90,3.49
334,Orange,33.79,-117.85,73.0,82,1,5.82
335,Great Yarmouth,52.61,1.73,63.0,93,75,5.82
336,Kenai,60.55,-151.26,61.0,82,20,10.29
337,Tiznit,29.7,-9.73,66.11,92,2,9.69
338,Barinitas,8.76,-70.41,52.07,96,100,2.26
339,Gasa,27.91,89.73,42.71,90,100,7.92
340,Russell,38.9,-98.86,72.0,64,1,2.13
341,Ambon,47.55,-2.56,66.0,88,0,3.36
342,Ahuimanu,21.44,-157.84,84.2,88,40,10.29
343,Peterhead,-34.83,138.5,61.0,82,75,10.29
344,Lima Duarte,-21.84,-43.79,48.11,93,2,3.36
345,Iquitos,-3.75,-73.25,75.2,88,0,3.36
346,Nenjiang,49.17,125.23,69.17,89,100,6.64
347,Henties Bay,-22.12,14.28,54.0,97,0,1.99
348,Okha,53.59,142.95,59.45,80,39,5.19
349,Conway,35.09,-92.44,77.0,94,1,4.7
350,Shingu,33.72,135.99,75.2,88,75,9.17
351,Devecser,47.1,17.44,55.4,71,0,2.24
352,Karachi,24.87,67.03,91.4,55,40,13.87
353,Dosso,13.05,3.19,80.87,64,69,12.3
354,Polysayevo,54.6,86.28,68.81,59,0,8.7
355,Flinders,-34.58,150.85,64.0,38,40,20.8
356,Kaya,13.31,12.68,85.19,47,78,18.9
357,Saint-Georges,46.12,-70.67,61.0,25,63,7.83
358,Leua,-11.65,20.45,54.41,38,0,4.79
359,Laguna,16.17,-88.94,77.0,94,20,1.88
360,Nemuro,43.32,145.57,62.6,82,75,9.17
361,Dubasari,47.26,29.16,71.01,72,0,9.17
362,Malanje,-9.54,16.35,57.47,87,0,2.73
363,Conceicao das Alagoas,-19.91,-48.39,59.0,58,0,10.29
364,Alofi,-19.06,-169.92,77.0,88,0,8.05
365,Caceres,5.53,-74.53,63.95,85,23,4.99
366,Paicandu,-23.46,-52.05,53.69,95,45,5.14
367,Aykhal,65.95,111.51,80.6,30,75,6.71
368,Gbarnga,7.0,-9.47,69.53,99,99,2.24
369,Tamworth,-31.09,150.93,63.0,48,9,18.34
370,Acapulco,16.86,-99.88,78.8,83,90,6.93
371,Buraydah,26.33,43.97,89.6,33,0,6.93
372,Aksarka,66.56,67.8,63.77,90,100,13.62
373,Nortelandia,-14.45,-56.8,65.75,50,0,3.67
374,Kiama,-34.67,150.86,64.0,38,40,20.8
375,Necochea,-38.55,-58.74,37.99,97,83,1.99
376,Mecca,21.43,39.83,98.33,12,0,6.29
377,Oranjestad,12.52,-70.03,80.6,83,20,19.46
378,Saint-Francois,46.42,3.91,53.6,87,0,2.24
379,Portland,43.66,-70.25,64.4,77,1,1.77
380,Kaitangata,-46.28,169.85,50.0,77,32,2.42
381,Barentu,15.11,37.59,77.81,60,41,9.6
382,Port-Gentil,-0.72,8.78,75.2,94,75,4.7
383,Sorland,67.67,12.69,50.0,100,90,6.93
384,Putina,-14.91,-69.87,30.83,67,0,2.8
385,Kulaman,6.46,124.09,81.77,71,87,5.01
386,Jawhar,19.91,73.23,81.59,82,100,12.77
387,Mitsamiouli,-11.38,43.28,78.8,61,20,10.29
388,Yarada,17.65,83.27,93.2,52,75,13.87
389,Tomigusuku,26.18,127.67,89.6,79,75,16.11
390,Mabaruma,8.2,-59.78,71.33,97,13,0.38
391,The Valley,18.22,-63.06,82.0,78,20,11.41
392,Pontianak,-0.02,109.34,82.67,74,68,9.26
393,Cabo San Lucas,22.89,-109.91,84.2,45,5,4.7
394,Viedma,-40.81,-62.99,46.49,74,65,7.31
395,Adrar,27.87,-0.29,95.0,13,0,8.05
396,Rincon,8.46,-82.28,57.99,59,99,11.01
397,Saldanha,41.42,-6.55,68.09,53,0,3.27
398,Mumford,5.26,-0.76,70.07,98,56,2.46
399,Nabire,-3.36,135.5,78.53,69,84,5.64
400,Takoradi,4.89,-1.75,71.33,96,39,2.68
401,Cairns,-16.92,145.77,78.8,61,75,11.41
402,Cockburn Town,21.46,-71.14,81.23,86,10,18.84
403,El Espinal,16.48,-95.04,71.51,91,98,2.95
404,Souillac,45.6,-0.6,66.0,77,0,2.24
405,Taraz,42.89,71.39,87.8,31,0,4.47
406,Kahului,20.89,-156.47,82.4,65,40,13.87
407,Prince George,53.92,-122.75,57.2,93,90,8.05
408,Ivybridge,50.39,-3.92,61.0,93,20,2.24
409,Madang,35.32,102.79,41.63,95,100,4.05
410,Longmont,40.17,-105.1,71.6,49,1,5.82
411,Meridian,43.61,-116.39,80.6,53,100,3.36
412,Luwuk,-0.95,122.79,66.11,90,100,4.9
413,Shima,34.34,136.82,69.8,88,90,24.16
414,Bathsheba,13.22,-59.52,80.6,74,75,17.22
415,Trojes,41.76,19.96,66.2,63,0,3.36
416,Half Moon Bay,37.46,-122.43,64.0,93,1,5.82
417,Biancavilla,37.65,14.86,80.01,83,5,8.05
418,Bambanglipuro,-7.95,110.28,75.65,82,8,23.02
419,Nanchang,28.68,115.89,84.11,67,92,5.14
420,Parkersburg,39.27,-81.55,75.2,94,1,1.92
421,Shenzhen,22.54,114.05,93.0,79,20,11.18
422,Nhulunbuy,-12.18,136.78,78.8,69,40,10.29
423,Tieli,46.98,128.05,79.79,62,100,7.16
424,Angoche,-16.23,39.91,72.95,69,4,7.49
425,Rawson,-43.3,-65.11,48.47,67,86,7.45
426,Suamico,44.63,-88.04,71.6,82,40,4.7
427,Port Blair,11.67,92.75,89.6,66,40,9.17
428,Majene,-3.54,118.97,82.49,73,33,16.24
429,Healdsburg,38.61,-122.87,64.99,100,1,6.93
430,Palmas,-10.18,-48.33,73.4,60,0,6.93
431,Dikson,73.51,80.55,31.37,97,100,10.98
432,Berkakit,56.58,124.77,73.31,53,25,10.38
433,College,64.86,-147.8,79.0,57,40,5.82
434,Senneterre,48.39,-77.24,64.4,82,20,4.7
435,Beringovskiy,63.05,179.32,63.77,58,17,4.34
436,Najran,17.54,44.22,93.2,16,0,6.93
437,Ankazoabo,-22.29,44.51,60.89,81,63,9.19
438,Shieli,44.18,66.74,99.77,13,57,15.84
439,Mao,19.55,-71.08,81.0,94,20,5.82
440,Sitka,37.17,-99.65,73.0,79,35,9.44
441,Rio Linda,38.69,-121.45,77.0,53,1,8.05
442,Grand Gaube,-20.01,57.66,75.99,78,40,2.24
443,Koumac,-20.56,164.28,71.51,68,47,13.04
444,Trairi,-3.28,-39.27,69.71,94,5,4.97
445,Mayo,63.59,-135.9,69.8,43,90,2.24
446,Bin Qirdan,33.14,11.22,81.05,62,0,7.43
447,Salalah,17.01,54.1,82.4,83,90,6.93
448,Tirat Karmel,32.76,34.97,82.99,69,20,3.36
449,Dunedin,-45.87,170.5,50.0,88,0,4.0
450,Mahanoro,-19.9,48.8,72.41,74,67,1.03
451,San Matias,-16.36,-58.4,68.81,48,0,4.29
452,Fortuna,40.6,-124.16,64.4,87,90,4.7
453,Senanga,-16.1,23.3,52.43,36,19,3.42
454,Lichuan,30.3,108.94,80.87,60,94,6.2
455,Gizo,31.8,34.94,80.01,78,20,8.05
456,Poronaysk,49.22,143.1,55.13,86,99,6.6
457,Isangel,-19.55,169.27,75.2,78,75,11.41
458,Huarmey,-10.07,-78.15,62.15,89,2,14.54
459,Nampula,-15.12,39.26,62.6,100,75,3.36
460,Sabha,27.03,14.43,86.63,15,0,7.18
461,Lompoc,34.64,-120.46,64.0,87,90,6.93
462,Ostersund,63.18,14.64,51.01,66,0,6.93
463,Sawakin,19.1,37.33,91.49,31,0,34.05
464,Bonfim,3.36,-59.84,74.03,86,3,6.76
465,Hambantota,6.12,81.12,91.4,66,75,10.29
466,Carahue,-38.71,-73.16,48.2,100,75,5.82
467,Kyren,51.68,102.13,64.85,60,15,6.04
468,Idenao,4.25,9.0,71.6,100,40,4.21
469,Ishigaki,24.34,124.16,86.0,74,75,20.8
470,Bozuyuk,39.91,30.04,72.0,77,40,3.36
471,Horta,-10.93,-37.66,75.2,88,40,17.22
472,Bangkalan,-7.05,112.74,88.25,47,2,7.94
473,Ibra,22.69,58.55,100.67,13,6,2.42
474,Abalak,15.46,6.28,86.09,39,43,13.15
475,Virginia Beach,36.85,-75.98,79.0,100,20,10.13
476,Harrisonburg,38.45,-78.87,77.0,94,40,3.36
477,Hami,42.84,93.51,95.99,13,69,8.5
478,Abu Kamal,34.45,40.92,91.49,26,0,20.31
479,Kamenka,48.03,28.7,55.99,84,2,3.0
480,Panzhihua,26.59,101.72,81.23,61,100,1.7
481,Jiangkou,30.7,117.56,84.83,57,53,3.53
482,Puerto Ayacucho,5.66,-67.63,72.05,92,10,3.2
483,Warrnambool,-38.38,142.48,55.99,51,99,18.99
484,Chicama,-7.84,-79.15,62.6,82,20,5.82
485,Biak,-0.91,122.88,66.11,90,100,4.9
486,Tambilil,5.96,124.67,82.4,78,40,2.24
487,Orgovany,46.75,19.47,66.99,67,0,6.93
488,Mazatlan,23.22,-106.42,84.99,79,75,1.43
489,Copiapo,-27.37,-70.33,50.0,87,85,2.24
490,Hualmay,-11.1,-77.61,61.97,89,1,13.98
491,Los Llanos de Aridane,28.66,-17.92,69.8,68,75,3.36
492,Salamiyah,35.01,37.05,88.25,26,0,13.24
493,Glendive,47.11,-104.71,66.2,68,1,8.05
494,Oktyabrskiy,55.61,37.97,59.0,93,75,2.24
495,Camopi,3.17,-52.33,70.07,99,91,1.88
496,La Romana,18.43,-68.97,82.4,78,20,8.05
497,Biu,10.61,12.19,70.61,93,100,11.61
498,Kamaishi,39.28,141.86,69.8,68,75,13.87
499,Yeniseysk,58.45,92.17,70.79,52,27,9.73
500,Nelson Bay,-32.72,152.14,68.0,37,0,24.16
501,Sooke,48.37,-123.73,64.0,100,90,4.7
502,Toucheng,24.86,121.82,91.0,84,75,6.93
503,Darhan,49.49,105.92,78.53,48,61,5.1
504,Grass Valley,39.22,-121.06,78.8,49,1,5.26
505,Pitimbu,-7.47,-34.81,73.4,100,40,3.36
506,Nome,30.04,-94.42,84.0,100,1,3.2
507,Mapimi,25.82,-103.85,79.97,46,52,7.27
508,Ngunguru,-35.62,174.5,59.63,79,1,11.7
509,Plonsk,52.62,20.38,61.0,93,40,5.82
510,Gouyave,12.16,-61.73,80.6,83,20,8.05
511,Middletown,39.52,-84.4,78.01,78,1,4.7
512,Paamiut,61.99,-49.67,41.99,90,100,5.14
513,Avera,33.19,-82.53,78.8,100,1,4.7
514,Rabaul,-4.2,152.17,84.11,68,100,11.36
515,Maragogi,-9.01,-35.22,70.43,94,1,2.53
516,Yulara,-25.24,130.99,71.6,14,75,5.82
517,Caravelas,-17.73,-39.27,69.89,82,99,7.87
518,Katobu,-4.94,122.53,83.39,63,26,8.37
519,Eucaliptus,-17.6,-67.51,38.75,47,0,0.81
520,Kodar,16.98,79.97,90.95,48,100,17.11
521,Bella Union,8.5,-73.35,67.73,92,99,4.47
522,Garmsar,35.22,52.34,85.01,23,38,6.98
523,Thinadhoo,0.53,72.93,84.65,72,100,8.79
524,Ucluelet,48.94,-125.55,60.01,98,15,8.19
525,Dalbandin,28.9,64.41,94.55,29,0,10.42
526,Dawson Creek,55.76,-120.23,57.2,82,20,2.24
527,Capari,41.06,21.18,55.4,62,0,11.41
528,Abu Dhabi,24.47,54.37,96.8,24,0,4.7
529,Santa Marta,11.24,-74.21,80.6,78,75,33.02
530,Pochutla,15.74,-96.47,77.0,78,20,5.82
531,Zhangye,38.94,100.46,77.09,21,100,8.01
532,Ilhabela,-23.78,-45.36,68.99,68,100,7.74
533,Mehamn,71.03,27.85,51.8,66,0,4.7
534,Katsuura,33.93,134.5,82.4,88,75,18.34
535,Stolin,51.89,26.85,54.23,93,98,9.35
536,Atbasar,51.81,68.36,80.15,37,55,13.98
537,Sinnamary,5.38,-52.96,77.99,86,83,10.96
538,Pankrushikha,53.83,80.35,71.33,45,3,7.94
539,Old Shinyanga,-3.56,33.41,70.79,56,0,9.46
540,San Policarpo,12.18,125.51,85.01,69,36,5.53
541,Nouadhibou,20.93,-17.03,66.2,88,1,18.34
542,Sioux Lookout,50.1,-91.92,57.2,100,75,2.24
543,Qandala,11.47,49.87,90.77,50,34,25.88
544,Boundiali,9.53,-6.48,68.99,97,15,5.06
545,Zeerust,-25.54,26.07,42.8,60,0,3.36
546,Gazojak,41.19,61.4,103.91,7,21,11.3
547,Atar,20.52,-13.05,82.31,22,22,8.48
548,Stykkisholmur,65.08,-22.73,49.91,86,100,0.85
549,Sindor,62.87,51.9,48.65,94,100,6.42
550,Tessalit,20.2,1.01,86.81,28,15,6.46
551,Zhezkazgan,47.8,67.71,87.8,22,48,13.42
